{"results":[{"address_components":[{"long_name":"FSSF Road","short_name":"FSSF Rd","types":["route"]},{"long_name":"Nyay Khand I","short_name":"Nyay Khand I","types":["political","sublocality","sublocality_level_2"]},{"long_name":"Indirapuram","short_name":"Indirapuram","types":["political","sublocality","sublocality_level_1"]},{"long_name":"Ghaziabad","short_name":"Ghaziabad","types":["locality","political"]},{"long_name":"Ghaziabad","short_name":"Ghaziabad","types":["administrative_area_level_2","political"]},{"long_name":"Uttar Pradesh","short_name":"UP","types":["administrative_area_level_1","political"]},{"long_name":"India","short_name":"IN","types":["country","political"]},{"long_name":"201014","short_name":"201014","types":["postal_code"]}],"formatted_address":"FSSF Rd, Nyay Khand I, Indirapuram, Ghaziabad, Uttar Pradesh 201014, India","geometry":{"bounds":{"northeast":{"lat":28.633526,"lng":77.3507132},"southwest":{"lat":28.6335163,"lng":77.3503791}},"location":{"lat":28.6335212,"lng":77.3505461},"location_type":"GEOMETRIC_CENTER","viewport":{"northeast":{"lat":28.6348701302915,"lng":77.3518951302915},"southwest":{"lat":28.6321721697085,"lng":77.34919716970849}}},"place_id":"ChIJOWopjzTlDDkRHdNZJn6cUvA","types":["route"]},{"address_components":[{"long_name":"Nyay Khand I","short_name":"Nyay Khand I","types":["political","sublocality","sublocality_level_2"]},{"long_name":"Indirapuram","short_name":"Indirapuram","types":["political","sublocality","sublocality_level_1"]},{"long_name":"Ghaziabad","short_name":"Ghaziabad","types":["locality","political"]},{"long_name":"Gautam Buddh Nagar","short_name":"Gautam Buddh Nagar","types":["administrative_area_level_2","political"]},{"long_name":"Uttar Pradesh","short_name":"UP","types":["administrative_area_level_1","political"]},{"long_name":"India","short_name":"IN","types":["country","political"]},{"long_name":"201014","short_name":"201014","types":["postal_code"]}],"formatted_address":"Nyay Khand I, Indirapuram, Ghaziabad, Uttar Pradesh 201014, India","geometry":{"bounds":{"northeast":{"lat":28.640947,"lng":77.3569928},"southwest":{"lat":28.632344,"lng":77.349408}},"location":{"lat":28.6348932,"lng":77.35397739999999},"location_type":"APPROXIMATE","viewport":{"northeast":{"lat":28.640947,"lng":77.3569928},"southwest":{"lat":28.632344,"lng":77.349408}}},"place_id":"ChIJ7Wf9LjXlDDkRLRXW4c1oiIM","types":["political","sublocality","sublocality_level_2"]},{"address_components":[{"long_name":"Indirapuram","short_name":"Indirapuram","types":["political","sublocality","sublocality_level_1"]},{"long_name":"Ghaziabad","short_name":"Ghaziabad","types":["locality","political"]},{"long_name":"Ghaziabad","short_name":"Ghaziabad","types":["administrative_area_level_2","political"]},{"long_name":"Uttar Pradesh","short_name":"UP","types":["administrative_area_level_1","political"]},{"long_name":"India","short_name":"IN","types":["country","political"]}],"formatted_address":"Indirapuram, Ghaziabad, Uttar Pradesh, India","geometry":{"bounds":{"northeast":{"lat":28.66654699999999,"lng":77.399982},"southwest":{"lat":28.6321489,"lng":77.33926989999999}},"location":{"lat":28.641485,"lng":77.3713856},"location_type":"APPROXIMATE","viewport":{"northeast":{"lat":28.66654699999999,"lng":77.399982},"southwest":{"lat":28.6321489,"lng":77.33926989999999}}},"place_id":"ChIJPYQxrrv6DDkR9yhFEHR8hfU","types":["political","sublocality","sublocality_level_1"]},{"address_components":[{"long_name":"Ghaziabad","short_name":"Ghaziabad","types":["locality","political"]},{"long_name":"Ghaziabad","short_name":"Ghaziabad","types":["administrative_area_level_2","political"]},{"long_name":"Uttar Pradesh","short_name":"UP","types":["administrative_area_level_1","political"]},{"long_name":"India","short_name":"IN","types":["country","political"]}],"formatted_address":"Ghaziabad, Uttar Pradesh, India","geometry":{"bounds":{"northeast":{"lat":28.7969614,"lng":77.5562668},"southwest":{"lat":28.6023449,"lng":77.23378989999999}},"location":{"lat":28.6691565,"lng":77.45375779999999},"location_type":"APPROXIMATE","viewport":{"northeast":{"lat":28.7969614,"lng":77.5562668},"southwest":{"lat":28.6023449,"lng":77.23378989999999}}},"place_id":"ChIJ3w_FQbvxDDkRuph3atJv8OY","types":["locality","political"]},{"address_components":[{"long_name":"201014","short_name":"201014","types":["postal_code"]},{"long_name":"Uttar Pradesh","short_name":"UP","types":["administrative_area_level_1","political"]},{"long_name":"India","short_name":"IN","types":["country","political"]}],"formatted_address":"Uttar Pradesh 201014, India","geometry":{"bounds":{"northeast":{"lat":28.6654121,"lng":77.3998},"southwest":{"lat":28.628458,"lng":77.3443437}},"location":{"lat":28.6438234,"lng":77.3726379},"location_type":"APPROXIMATE","viewport":{"northeast":{"lat":28.6654121,"lng":77.3998},"southwest":{"lat":28.628458,"lng":77.3443437}}},"place_id":"ChIJ5bUkF676DDkRCpSJkIRQw64","types":["postal_code"]},{"address_components":[{"long_name":"Ghaziabad","short_name":"Ghaziabad","types":["administrative_area_level_2","political"]},{"long_name":"Uttar Pradesh","short_name":"UP","types":["administrative_area_level_1","political"]},{"long_name":"India","short_name":"IN","types":["country","political"]}],"formatted_address":"Ghaziabad, Uttar Pradesh, India","geometry":{"bounds":{"northeast":{"lat":28.92635,"lng":77.7122799},"southwest":{"lat":28.5885701,"lng":77.2000599}},"location":{"lat":28.7891841,"lng":77.5160788},"location_type":"APPROXIMATE","viewport":{"northeast":{"lat":28.92635,"lng":77.7122799},"southwest":{"lat":28.5885701,"lng":77.2000599}}},"place_id":"ChIJBcaGTMvxDDkRJ-8yMq3zM3s","types":["administrative_area_level_2","political"]},{"address_components":[{"long_name":"Uttar Pradesh","short_name":"UP","types":["administrative_area_level_1","political"]},{"long_name":"India","short_name":"IN","types":["country","political"]}],"formatted_address":"Uttar Pradesh, India","geometry":{"bounds":{"northeast":{"lat":30.411635,"lng":84.6743269},"southwest":{"lat":23.870839,"lng":77.0924369}},"location":{"lat":26.8467088,"lng":80.9461592},"location_type":"APPROXIMATE","viewport":{"northeast":{"lat":30.411635,"lng":84.6743269},"southwest":{"lat":23.870839,"lng":77.0924369}}},"place_id":"ChIJ0wlKe59OmTkRnSQXNm1HpfY","types":["administrative_area_level_1","political"]},{"address_components":[{"long_name":"India","short_name":"IN","types":["country","political"]}],"formatted_address":"India","geometry":{"bounds":{"northeast":{"lat":35.5087008,"lng":97.39535869999999},"southwest":{"lat":6.4626999,"lng":68.1097}},"location":{"lat":20.593684,"lng":78.96288},"location_type":"APPROXIMATE","viewport":{"northeast":{"lat":35.5087008,"lng":97.39535869999999},"southwest":{"lat":6.4626999,"lng":68.1097}}},"place_id":"ChIJkbeSa_BfYzARphNChaFPjNc","types":["country","political"]}],"status":"OK"}